{
    
    "companies": [
        {
            "name": "IMA GmbH - Marketing & Consulting",
            "color": "1",
            "position": [0.20192029133130035, 0.3312955013416259],
            "industry": "consultancy",
            "size": "big",
            "location": {
                "lat": 49.239390,
                "long": 6.954800
            }
        },
        {
            "name": "Dreikant Consulting",
            "color":"2",
            "position": [0.8850717953109946, -0.5625958834611223],
            "industry": "consultancy",
            "size": "small",
            "location": {
                "lat": 49.222350,
                "long": 6.987050
            }
        },
        {
            "name": "Audimus Consulting",
            "color": "0",
            "position": [-0.372081508352802, -0.4568361630982932],
            "industry": "consultancy",
            "size": "medium",
            "location": {
                "lat": 49.236408,
                "long": 6.991760
            }
        },
        {
            "name": "PPMB Prozess- und Projekt-Management Beratung Dr. Schmidt GmbH",
            "color": "0",
            "position": [-0.2956389905105685, -0.2645458802996269],
            "industry": "consultancy",
            "size": "big",
            "location": {
                "lat": 49.468420,
                "long": 7.169940
            }
        },
        {
            "name": "amotiq solutions GmbH",
            "color": "3",
            "position": [0.1164184208042348, -0.06849788202868477],
            "industry": "consultancy",
            "size": "medium",
            "location": {
                "lat": 49.310960,
                "long": 6.745320
            }
        },
        {
            "name": "PIKON International Consulting Group GmbH",
            "color": "0",
            "position": [-0.4695970580073554, 0.0019962288216929056],
            "industry": "consultancy",
            "size": "big",
            "location": {
                "lat": 49.20595001858,
                "long": 7.042419978903
            }
        },
        {
            "name": "Scheer GmbH",
            "color": "3",
            "position": [-0.02092507238570108, 0.00681824986589496],
            "industry": "consultancy",
            "size": "big",
            "location": {
                "lat": 49.257944,
                "long": 7.042444
            }
        },
        {
            "name": "Prego Services GmbH",
            "color":"1",
            "position": [0.4046758939046751, 0.7087385967236391],
            "industry": "consultancy",
            "size": "medium",
            "location": {
                "lat": 49.240722,
                "long": 7.006833
            }
        },
        {
            "name": "Orbis AG",
            "color": "0", "position": [-0.5252304384916082, 0.2043735850080153],
            "industry": "consultancy",
            "size": "big",
            "location": {
                "lat": 49.239627,
                "long": 6.956379
            }
        },
        {
            "name": "DHC Business Solutions GmbH & Co. KG",
            "color": "3",
            "position": [0.27734909478198794, 0.06777621268053982],
            "industry": "consultancy",
            "size": "medium",
            "location": {
                "lat": 49.233611,
                "long": 7.002389
            }
        },
        
        {
            "name": "UWS Unternehmensberatung GmbH",
            "color": "0",
            "position": [-0.2019624283851577, 0.031477434446319445],
            "industry": "consultancy",
            "size": "big",
            "location": {
                "lat": 49.310194,
                "long": 6.736083
            }
        }
       
    ]
}